[
  {"name": "Graphic Era Deemed", "lat": 30.269033, "lon": 77.993146},
  {"name": "Graphic Era hill", "lat": 30.273550, "lon": 78.000063},
  {"name": "ISBT", "lat": 30.289862, "lon": 77.997158},
  {"name": "Subhash Nagar", "lat": 30.278060, "lon": 77.990631},
  {"name": "Majra", "lat": 30.296633944172, "lon": 77.99660007386835},
  {"name": "Clock Tower", "lat": 30.3255, "lon": 78.0414},
  {"name": "Garhi Cantt", "lat": 30.3424, "lon": 78.0595},
  {"name": "Karanpur", "lat": 30.3333, "lon": 78.0402},
  {"name": "Khalanga", "lat": 30.3575, "lon": 78.0530},
  {"name": "Raipur", "lat": 30.3379, "lon": 78.1120},
  {"name": "Jogiwala", "lat": 30.3118, "lon": 78.0831},
  {"name": "Dehradun Zoo", "lat": 30.3075, "lon": 78.0812},
  {"name": "FRI Dehradun", "lat": 30.2766, "lon": 77.9976},
  {"name": "Prem Nagar", "lat": 30.2885, "lon": 77.9613},
  {"name": "Sudhowala", "lat": 30.2847, "lon": 77.9495},
  {"name": "Banjarawala", "lat": 30.2839, "lon": 78.0197},
  {"name": "Pacific Mall", "lat": 30.3162, "lon": 78.0360},
  {"name": "Max Hospital", "lat": 30.3126, "lon": 78.0742},
  {"name": "Mussoorie", "lat": 30.4598, "lon": 78.0663}
]